[
  {
    "position": 2,
    "points": 554,
    "wins": 4,
    "pole": 12,
    "podium": 20,
    "points_all": 9222,
    "wins_all": 217,
    "podiums_all": 789,
    "pole_all": 237,
    "titre_ecurie": 16,
    "titre_pilote": 15,
    "nom": "Ferrari",
    "nationality": "Italian",
    "ImageBack": "data/backgroundEcuries.png",
    "ImageFront": "data/ecuries/Ferrari.jpg",
    "Lat": 44.907266,
    "Long": 11.16862,
    "color": "#DC0000"
  },
  {
    "position": 1,
    "points": 759,
    "wins": 17,
    "pole": 8,
    "podium": 28,
    "points_all": 6387,
    "wins_all": 92,
    "podiums_all": 234,
    "pole_all": 81,
    "titre_ecurie": 5,
    "titre_pilote": 6,
    "nom": "RedBull",
    "nationality": "Austrian",
    "ImageBack": "data/backgroundEcuries.png",
    "ImageFront": "data/ecuries/RedBull.jpg",
    "Lat": 48.07266,
    "Long": 15.19686,
    "color": "#0600EF"
  },
  {
    "position": 3,
    "points": 515,
    "wins": 1,
    "pole": 1,
    "podium": 17,
    "points_all": 6813,
    "wins_all": 116,
    "podiums_all": 281,
    "pole_all": 136,
    "titre_ecurie": 8,
    "titre_pilote": 9,
    "nom": "Mercedes",
    "nationality": "German",
    "ImageBack": "data/backgroundEcuries.png",
    "ImageFront": "data/ecuries/Mercedes.jpg",
    "Lat": 51.507266,
    "Long": 10.19686,
    "color": "#00D2BE"
  },
  {
    "position": 4,
    "points": 173,
    "wins": 0,
    "pole": 0,
    "podium": 0,
    "points_all": 2105,
    "wins_all": 36,
    "podiums_all": 105,
    "pole_all": 51,
    "titre_ecurie": 2,
    "titre_pilote": 2,
    "nom": "Alpine",
    "nationality": "French",
    "ImageBack": "data/backgroundEcuries.png",
    "ImageFront": "data/ecuries/Alpine.jpg",
    "Lat": 48.27266,
    "Long": 2.496862,
    "color": "#0090FF"
  },
  {
    "position": 5,
    "points": 159,
    "wins": 0,
    "pole": 0,
    "podium": 1,
    "points_all": 5550,
    "wins_all": 179,
    "podiums_all": 490,
    "pole_all": 155,
    "titre_ecurie": 8,
    "titre_pilote": 12,
    "nom": "McLaren",
    "nationality": "British",
    "ImageBack": "data/backgroundEcuries.png",
    "ImageFront": "data/ecuries/McLaren.jpg",
    "Lat": 51.507266,
    "Long": -1.19686,
    "color": "#FF8700"
  },
  {
    "position": 6,
    "points": 55,
    "wins": 0,
    "pole": 0,
    "podium": 0,
    "points_all": 183,
    "wins_all": 10,
    "podiums_all": 26,
    "pole_all": 12,
    "titre_ecurie": 0,
    "titre_pilote": 2,
    "nom": "Alfa Romeo",
    "nationality": "Swiss",
    "ImageBack": "data/backgroundEcuries.png",
    "ImageFront": "data/ecuries/AlfaRomeo.jpg",
    "Lat": 46.807266,
    "Long": 8.6862,
    "color": "#900000"
  },
  {
    "position": 7,
    "points": 55,
    "wins": 0,
    "pole": 0,
    "podium": 0,
    "points_all": 132,
    "wins_all": 0,
    "podiums_all": 3,
    "pole_all": 0,
    "titre_ecurie": 0,
    "titre_pilote": 0,
    "nom": "Aston Martin",
    "nationality": "British",
    "ImageBack": "data/backgroundEcuries.png",
    "ImageFront": "data/ecuries/AstonMartin.jpg",
    "Lat": 52.907266,
    "Long": -1.12,
    "color": "#006F62"
  },
  {
    "position": 8,
    "points": 37,
    "wins": 0,
    "pole": 1,
    "podium": 0,
    "points_all": 237,
    "wins_all": 0,
    "podiums_all": 0,
    "pole_all": 1,
    "titre_ecurie": 0,
    "titre_pilote": 0,
    "nom": "Haas",
    "nationality": "American",
    "ImageBack": "data/backgroundEcuries.png",
    "ImageFront": "data/ecuries/Haas.jpg",
    "Lat": 35.507266,
    "Long": -80.4862,
    "color": "#FFFFFF"
  },
  {
    "position": 9,
    "points": 35,
    "wins": 0,
    "pole": 0,
    "podium": 0,
    "points_all": 784,
    "wins_all": 2,
    "podiums_all": 5,
    "pole_all": 1,
    "titre_ecurie": 0,
    "titre_pilote": 0,
    "nom": "AlphaTauri",
    "nationality": "Italian",
    "ImageBack": "data/backgroundEcuries.png",
    "ImageFront": "data/ecuries/AlphaTauri.jpg",
    "Lat": 42.907266,
    "Long": 12.96862,
    "color": "#2B4562"
  },
  {
    "position": 10,
    "points": 8,
    "wins": 0,
    "pole": 0,
    "podium": 0,
    "points_all": 3597,
    "wins_all": 114,
    "podiums_all": 312,
    "pole_all": 128,
    "titre_ecurie": 9,
    "titre_pilote": 7,
    "nom": "Williams",
    "nationality": "British",
    "ImageBack": "data/backgroundEcuries.png",
    "ImageFront": "data/ecuries/Williams.jpg",
    "Lat": 51.907266,
    "Long": -2.01132,
    "color": "#005AFF"
  }
]
